{
"type": "FeatureCollection",
"name": "Dependencias.xlsx",
"crs": { "type": "name", "properties": { "name": "urn:ogc:def:crs:OGC:1.3:CRS84" } },
"features": [
{ "type": "Feature", "properties": { "Name": "CS N° 001 - General Mosconi", "Numero": 1.0, "Direccion": "Calle Pedro Naon 1330", "Atencion": "Atención 7 - 21 hs", "Telefono": "TE: 4335102 \/ 5428", "Longitud": -64.149057, "Latitud": -31.3648, "IdIcono": 1.0 }, "geometry": { "type": "Point", "coordinates": [ -64.149057, -31.3648 ] } },
{ "type": "Feature", "properties": { "Name": "CS N° 002 - Los Sauces", "Numero": 2.0, "Direccion": "Calle Algarrobo 351 esq. Espinillos", "Atencion": "Atención 7 a 19 hs", "Telefono": "TE: 4338516", "Longitud": -64.099324, "Latitud": -31.46223, "IdIcono": 1.0 }, "geometry": { "type": "Point", "coordinates": [ -64.099324, -31.46223 ] } },
{ "type": "Feature", "properties": { "Name": "CS N° 003 - Los Pinos", "Numero": 3.0, "Direccion": "Calle Los Nogales 3786 (entre M.J. Duran y Rawson)", "Atencion": "Atención 7 a 14 hs", "Telefono": "TE: 4339101", "Longitud": -64.140914, "Latitud": -31.39212, "IdIcono": 1.0 }, "geometry": { "type": "Point", "coordinates": [ -64.140914, -31.39212 ] } },
{ "type": "Feature", "properties": { "Name": "CS N° 004 - Nueva Italia", "Numero": 4.0, "Direccion": "Calle Jose de Quevedo esq. Dos Barrios", "Atencion": "Atención 7 a 17 hs", "Telefono": "TE: 4335123", "Longitud": -64.142765, "Latitud": -31.381934, "IdIcono": 1.0 }, "geometry": { "type": "Point", "coordinates": [ -64.142765, -31.381934 ] } },
{ "type": "Feature", "properties": { "Name": "CS N° 005 - Yofre Norte", "Numero": 5.0, "Direccion": "Calle Rene de Clairac 1875", "Atencion": "Atención 7 a 14 hs", "Telefono": "TE: 4339103", "Longitud": -64.130464, "Latitud": -31.38667, "IdIcono": 1.0 }, "geometry": { "type": "Point", "coordinates": [ -64.130464, -31.38667 ] } },
{ "type": "Feature", "properties": { "Name": "CS N° 006 - Villa Rivera Indarte", "Numero": 6.0, "Direccion": "Calle Chamico y Reartes", "Atencion": "Atención 7 a 17 hs", "Telefono": "TE: 03543-449420", "Longitud": -64.297292, "Latitud": -31.328122, "IdIcono": 1.0 }, "geometry": { "type": "Point", "coordinates": [ -64.297292, -31.328122 ] } },
{ "type": "Feature", "properties": { "Name": "CS N° 007 - Pueyrredón", "Numero": 7.0, "Direccion": "CallePasaje Urtubey esq. Faray Bracco", "Atencion": "Atención 7 a 15 hs", "Telefono": "TE: 4339135 \/ 9109", "Longitud": -64.154813, "Latitud": -31.400302, "IdIcono": 1.0 }, "geometry": { "type": "Point", "coordinates": [ -64.154813, -31.400302 ] } },
{ "type": "Feature", "properties": { "Name": "CS N° 008 - Acosta", "Numero": 8.0, "Direccion": "Calle Corrientes esq. Rio Parana", "Atencion": "Atención 7 a 19 hs", "Telefono": "TE: 4338551", "Longitud": -64.130083, "Latitud": -31.427812, "IdIcono": 1.0 }, "geometry": { "type": "Point", "coordinates": [ -64.130083, -31.427812 ] } },
{ "type": "Feature", "properties": { "Name": "CS N° 009 - Alberdi Oeste", "Numero": 9.0, "Direccion": "Calle Dr. Pedro Chutro", "Atencion": "Atención 7 a 17 hs", "Telefono": "TE: 4337309", "Longitud": -64.213926, "Latitud": -31.404899, "IdIcono": 1.0 }, "geometry": { "type": "Point", "coordinates": [ -64.213926, -31.404899 ] } },
{ "type": "Feature", "properties": { "Name": "CS N° 010 - Colonia Lola", "Numero": 10.0, "Direccion": "Calle Lola Mora 1324", "Atencion": "Atención 7 a 17 hs", "Telefono": "TE: 4338763 \/ 8552", "Longitud": -64.115186, "Latitud": -31.424926, "IdIcono": 1.0 }, "geometry": { "type": "Point", "coordinates": [ -64.115186, -31.424926 ] } },
{ "type": "Feature", "properties": { "Name": "CS N° 011 - Colóny Crisol", "Numero": 11.0, "Direccion": "Calle Tolosa 2564 esq. Acosta", "Atencion": "Atención 7 a 18 hs", "Telefono": "TE: 4338750 \/ 60", "Longitud": -64.164217, "Latitud": -31.43975, "IdIcono": 1.0 }, "geometry": { "type": "Point", "coordinates": [ -64.164217, -31.43975 ] } },
{ "type": "Feature", "properties": { "Name": "CS N° 012 - Ferreyra", "Numero": 12.0, "Direccion": "Calle Armas Argentinas 5747", "Atencion": "Atención 24 hs", "Telefono": "TE: 4338630", "Longitud": -64.108868, "Latitud": -31.461173, "IdIcono": 1.0 }, "geometry": { "type": "Point", "coordinates": [ -64.108868, -31.461173 ] } },
{ "type": "Feature", "properties": { "Name": "CS N° 013 - Hipolito Yrigoyen", "Numero": 13.0, "Direccion": "Calle Avellaneda 3571", "Atencion": "Atención 7 a 14 hs", "Telefono": "TE: 4335435", "Longitud": -64.186984, "Latitud": -31.372752, "IdIcono": 1.0 }, "geometry": { "type": "Point", "coordinates": [ -64.186984, -31.372752 ] } },
{ "type": "Feature", "properties": { "Name": "CS N° 014 - General Bustos", "Numero": 14.0, "Direccion": "Calle Diagonal IKA 1010", "Atencion": "Atención 7 a 15:30 hs", "Telefono": "TE: 4336003", "Longitud": -64.163957, "Latitud": -31.387143, "IdIcono": 1.0 }, "geometry": { "type": "Point", "coordinates": [ -64.163957, -31.387143 ] } },
{ "type": "Feature", "properties": { "Name": "CS N° 015 - Remedios de Escalada", "Numero": 15.0, "Direccion": "Calle 5 entre 14 y 15", "Atencion": "Atención 7 a 14 hs", "Telefono": "TE: 4332860\/61", "Longitud": -64.178771, "Latitud": -31.339123, "IdIcono": 1.0 }, "geometry": { "type": "Point", "coordinates": [ -64.178771, -31.339123 ] } },
{ "type": "Feature", "properties": { "Name": "CS N° 016 - Zumaran", "Numero": 16.0, "Direccion": "Calle Sebastian Gaboto 2356", "Atencion": "Atención 7 a 15 hs", "Telefono": "TE: 4335108 \/ 5438", "Longitud": -64.205153, "Latitud": -31.375246, "IdIcono": 1.0 }, "geometry": { "type": "Point", "coordinates": [ -64.205153, -31.375246 ] } },
{ "type": "Feature", "properties": { "Name": "CS N° 017 - Villa Azalaiz Oeste", "Numero": 17.0, "Direccion": "Calle Acampes esq. Gerchunoff", "Atencion": "Atención 7 a 14 hs", "Telefono": "TE: 4335109 \/ 5436", "Longitud": -64.175209, "Latitud": -31.36641, "IdIcono": 1.0 }, "geometry": { "type": "Point", "coordinates": [ -64.175209, -31.36641 ] } },
{ "type": "Feature", "properties": { "Name": "CS N° 018 - San Jorge", "Numero": 18.0, "Direccion": "Calle Barrancas del Parana esq. Jose Melian", "Atencion": "Atención 7 a 18 hs", "Telefono": "TE: 4335103\/ 5429", "Longitud": -64.132154, "Latitud": -31.374268, "IdIcono": 1.0 }, "geometry": { "type": "Point", "coordinates": [ -64.132154, -31.374268 ] } },
{ "type": "Feature", "properties": { "Name": "CS N° 019 - Sargento Cabral", "Numero": 19.0, "Direccion": "Calle Francisco Suarez 3170", "Atencion": "Atención 7 a 14 hs", "Telefono": "TE: 4335110 \/ 5439", "Longitud": -64.194928, "Latitud": -31.375731, "IdIcono": 1.0 }, "geometry": { "type": "Point", "coordinates": [ -64.194928, -31.375731 ] } },
{ "type": "Feature", "properties": { "Name": "CS N° 020 - Las Margaritas", "Numero": 20.0, "Direccion": "Calle Herminio Malvino 2662", "Atencion": "Atención 7 a 14 hs", "Telefono": "TE: 4335104 \/ 5440", "Longitud": -64.210984, "Latitud": -31.377368, "IdIcono": 1.0 }, "geometry": { "type": "Point", "coordinates": [ -64.210984, -31.377368 ] } },
{ "type": "Feature", "properties": { "Name": "CS N° 021 - Marquez de Sobremonte", "Numero": 21.0, "Direccion": "Calle Aguilar 5441 esq. Tomas de Irobi", "Atencion": "Atención 7 a 18 hs", "Telefono": "TE: 4335105\/ 5441", "Longitud": -64.196747, "Latitud": -31.364883, "IdIcono": 1.0 }, "geometry": { "type": "Point", "coordinates": [ -64.196747, -31.364883 ] } },
{ "type": "Feature", "properties": { "Name": "CS N° 022 - Alberdi Sud", "Numero": 22.0, "Direccion": "Calle Gavino Blanco 2229 esq. Angel Avalos", "Atencion": "Atención 7 a 14 hs", "Telefono": "TE: 4337310 \/ 7364", "Longitud": -64.213613, "Latitud": -31.412561, "IdIcono": 1.0 }, "geometry": { "type": "Point", "coordinates": [ -64.213613, -31.412561 ] } },
{ "type": "Feature", "properties": { "Name": "CS N° 023 - Rosedal Anexo", "Numero": 23.0, "Direccion": "Calle Padre Lozano 2490", "Atencion": "Atención 7 a 17 hs", "Telefono": "TE: 4333302", "Longitud": -64.22351, "Latitud": -31.43749, "IdIcono": 1.0 }, "geometry": { "type": "Point", "coordinates": [ -64.22351, -31.43749 ] } },
{ "type": "Feature", "properties": { "Name": "CS N° 024 - Cupani", "Numero": 24.0, "Direccion": "Calle Isaac Albeniz 1454", "Atencion": "Atención 7 a 14 hs", "Telefono": "TE: 4333303 \/ 3518", "Longitud": -64.207929, "Latitud": -31.423763, "IdIcono": 1.0 }, "geometry": { "type": "Point", "coordinates": [ -64.207929, -31.423763 ] } },
{ "type": "Feature", "properties": { "Name": "CS N° 025 - San MartÍn", "Numero": 25.0, "Direccion": "Calle Paso de Uspallata 991", "Atencion": "Atención 7 a 18 hs (Miercoles 7 a 14 hs)", "Telefono": "TE: 4336021", "Longitud": -64.196768, "Latitud": -31.394638, "IdIcono": 1.0 }, "geometry": { "type": "Point", "coordinates": [ -64.196768, -31.394638 ] } },
{ "type": "Feature", "properties": { "Name": "CS N° 026 - Santa Ana", "Numero": 26.0, "Direccion": "Calle Gurruchaga 785", "Atencion": "Atención 7 a 21 hs", "Telefono": "TE: 4337306", "Longitud": -64.232517, "Latitud": -31.414465, "IdIcono": 1.0 }, "geometry": { "type": "Point", "coordinates": [ -64.232517, -31.414465 ] } },
{ "type": "Feature", "properties": { "Name": "CS N° 027 - Pilar", "Numero": 27.0, "Direccion": "Calle Tapalque esq. Patagonia", "Atencion": "Atención 7 a 14 hs", "Telefono": "TE: 4338553", "Longitud": -64.156071, "Latitud": -31.443944, "IdIcono": 1.0 }, "geometry": { "type": "Point", "coordinates": [ -64.156071, -31.443944 ] } },
{ "type": "Feature", "properties": { "Name": "CS N° 028 - Las Violetas", "Numero": 28.0, "Direccion": "Calle Aviador Locatelli y Formosa", "Atencion": "Atención 7 a 17 hs", "Telefono": "TE: 4337302", "Longitud": -64.250729, "Latitud": -31.410755, "IdIcono": 1.0 }, "geometry": { "type": "Point", "coordinates": [ -64.250729, -31.410755 ] } },
{ "type": "Feature", "properties": { "Name": "CS N° 029 - Villa Siburu", "Numero": 29.0, "Direccion": "Calle Clodomiro Arzac 550", "Atencion": "Atención 7 a 18 hs", "Telefono": "TE: 4337307", "Longitud": -64.227643, "Latitud": -31.39575, "IdIcono": 1.0 }, "geometry": { "type": "Point", "coordinates": [ -64.227643, -31.39575 ] } },
{ "type": "Feature", "properties": { "Name": "CS N° 030 - Villa Paez", "Numero": 30.0, "Direccion": "Calle Emilio Conti 1050 esq. Silvestre Remonda", "Atencion": "Atención 7 a 18 hs", "Telefono": "TE: 4337308", "Longitud": -64.206803, "Latitud": -31.397133, "IdIcono": 1.0 }, "geometry": { "type": "Point", "coordinates": [ -64.206803, -31.397133 ] } },
{ "type": "Feature", "properties": { "Name": "CS N° 031 - La Salle", "Numero": 31.0, "Direccion": "Calle Curaquen 6500", "Atencion": "Atención 7 a 15 hs", "Telefono": "TE: 03543-449427", "Longitud": -64.275016, "Latitud": -31.344291, "IdIcono": 1.0 }, "geometry": { "type": "Point", "coordinates": [ -64.275016, -31.344291 ] } },
{ "type": "Feature", "properties": { "Name": "CS N° 032 - Yapeyu", "Numero": 32.0, "Direccion": "Calle Loreto 42", "Atencion": "Atención 7 a 20 hs", "Telefono": "TE: 4339110\/36", "Longitud": -64.149583, "Latitud": -31.41276, "IdIcono": 1.0 }, "geometry": { "type": "Point", "coordinates": [ -64.149583, -31.41276 ] } },
{ "type": "Feature", "properties": { "Name": "CS N° 034 - Villa 9 de Julio", "Numero": 34.0, "Direccion": "Calle Coquena 7850 esq. Huarpes", "Atencion": "Atención 7 a 18 hs", "Telefono": "TE: 03543-449428\/22", "Longitud": -64.271704, "Latitud": -31.328768, "IdIcono": 1.0 }, "geometry": { "type": "Point", "coordinates": [ -64.271704, -31.328768 ] } },
{ "type": "Feature", "properties": { "Name": "CS Nº 033 - Argüello", "Numero": 33.0, "Direccion": "Av. Ricardo Rojas 6950", "Atencion": "Atención 7 a 17 hs", "Telefono": "TE: 4338335", "Longitud": -64.25606416, "Latitud": -31.34019214, "IdIcono": 1.0 }, "geometry": { "type": "Point", "coordinates": [ -64.25606416, -31.34019214 ] } },
{ "type": "Feature", "properties": { "Name": "CS N° 035 - Villa Revol", "Numero": 35.0, "Direccion": "Calle Chascomus 1750", "Atencion": "Atención 7 a 19 hs", "Telefono": "TE: 4334359\/51", "Longitud": -64.170448, "Latitud": -31.445921, "IdIcono": 1.0 }, "geometry": { "type": "Point", "coordinates": [ -64.170448, -31.445921 ] } },
{ "type": "Feature", "properties": { "Name": "CS N° 037 - Jose I. Diaz", "Numero": 37.0, "Direccion": "Calle Pedernera 2734 esq. Albornoz", "Atencion": "Atención 7 a 19:00 hs", "Telefono": "TE: 4338758", "Longitud": -64.140673, "Latitud": -31.442724, "IdIcono": 1.0 }, "geometry": { "type": "Point", "coordinates": [ -64.140673, -31.442724 ] } },
{ "type": "Feature", "properties": { "Name": "CS N° 038 - Urquiza", "Numero": 38.0, "Direccion": "Calle Miguel de Marmol 2956", "Atencion": "Atención 7 a 14 hs", "Telefono": "TE: 4338555\/ 38765", "Longitud": -64.14785, "Latitud": -31.439245, "IdIcono": 1.0 }, "geometry": { "type": "Point", "coordinates": [ -64.14785, -31.439245 ] } },
{ "type": "Feature", "properties": { "Name": "CS N° 039 - Ferrer", "Numero": 39.0, "Direccion": "Calle Bustos y Ferreyra 3100 esq. M. Baigorria", "Atencion": "Atención 7 a 14 hs", "Telefono": "TE: 4334355", "Longitud": -64.210871, "Latitud": -31.445241, "IdIcono": 1.0 }, "geometry": { "type": "Point", "coordinates": [ -64.210871, -31.445241 ] } },
{ "type": "Feature", "properties": { "Name": "CS N° 041 - Villa El Libertador", "Numero": 41.0, "Direccion": "Calle Chiclayo 105 (entre Pje. Publico y Defensa)", "Atencion": "Atención de 7 a 19 hs", "Telefono": "TE: 4333211", "Longitud": -64.214358, "Latitud": -31.469805, "IdIcono": 1.0 }, "geometry": { "type": "Point", "coordinates": [ -64.214358, -31.469805 ] } },
{ "type": "Feature", "properties": { "Name": "CS N° 042 - Comercial", "Numero": 42.0, "Direccion": "Calle Virgen de Fatima esq. Rio Tercero", "Atencion": "Atención 7 a 19 hs", "Telefono": "TE: 4333312 \/ 3187", "Longitud": -64.209587, "Latitud": -31.484598, "IdIcono": 1.0 }, "geometry": { "type": "Point", "coordinates": [ -64.209587, -31.484598 ] } },
{ "type": "Feature", "properties": { "Name": "CS N° 043 - Guemes", "Numero": 43.0, "Direccion": "Calle Bolivar 826", "Atencion": "Atención 7 a 14 hs", "Telefono": "TE: 4334377 \/ 4366", "Longitud": -64.194918, "Latitud": -31.42379, "IdIcono": 1.0 }, "geometry": { "type": "Point", "coordinates": [ -64.194918, -31.42379 ] } },
{ "type": "Feature", "properties": { "Name": "CS N° 044 - Bella Vista", "Numero": 44.0, "Direccion": "Calle Alejandro Dumas esq. Venus", "Atencion": "Atención 7 a 14 hs", "Telefono": "TE: 4334281", "Longitud": -64.208575, "Latitud": -31.434609, "IdIcono": 1.0 }, "geometry": { "type": "Point", "coordinates": [ -64.208575, -31.434609 ] } },
{ "type": "Feature", "properties": { "Name": "CS N° 045 - Cabo Farina", "Numero": 45.0, "Direccion": "Calle Viña del Mar 4651", "Atencion": "Atención 7 a 14 hs", "Telefono": "TE: 4334356 \/ 4080", "Longitud": -64.205303, "Latitud": -31.463756, "IdIcono": 1.0 }, "geometry": { "type": "Point", "coordinates": [ -64.205303, -31.463756 ] } },
{ "type": "Feature", "properties": { "Name": "CS N° 046 - Santa Isabel", "Numero": 46.0, "Direccion": "Calle Altos del Tala (Entre Catamarca e Isla Verde)", "Atencion": "Atención 7 a 19 hs", "Telefono": "TE: 4333313", "Longitud": -64.229615, "Latitud": -31.479408, "IdIcono": 1.0 }, "geometry": { "type": "Point", "coordinates": [ -64.229615, -31.479408 ] } },
{ "type": "Feature", "properties": { "Name": "CS N° 047 - Coronel Olmedo", "Numero": 47.0, "Direccion": "Calle Ruiz Huidobro 5848", "Atencion": "Atención 7 a 19 hs", "Telefono": "TE: 4338633", "Longitud": -64.143159, "Latitud": -31.478775, "IdIcono": 1.0 }, "geometry": { "type": "Point", "coordinates": [ -64.143159, -31.478775 ] } },
{ "type": "Feature", "properties": { "Name": "CS N° 048 - Villa Azalaiz Este", "Numero": 48.0, "Direccion": "Calle Milan 2960", "Atencion": "Atención 7 a 14 hs", "Telefono": "TE: 4335106 \/ 5437", "Longitud": -64.150701, "Latitud": -31.37525, "IdIcono": 1.0 }, "geometry": { "type": "Point", "coordinates": [ -64.150701, -31.37525 ] } },
{ "type": "Feature", "properties": { "Name": "CS N° 040 - Las Flores", "Numero": 40.0, "Direccion": "Avenida Armada Agentina 105", "Atencion": "Atención 7 a 19 hs", "Telefono": "TE: 4334353", "Longitud": -64.202272, "Latitud": -31.451094, "IdIcono": 1.0 }, "geometry": { "type": "Point", "coordinates": [ -64.202272, -31.451094 ] } },
{ "type": "Feature", "properties": { "Name": "CS N° 049 - Colinas del Cerro", "Numero": 49.0, "Direccion": "Calle Las Acacias esq Ramon Mestre", "Atencion": "Atención 7 a 14 hs", "Telefono": "TE: 4338405", "Longitud": -64.248691, "Latitud": -31.379297, "IdIcono": 1.0 }, "geometry": { "type": "Point", "coordinates": [ -64.248691, -31.379297 ] } },
{ "type": "Feature", "properties": { "Name": "CS N° 050 - Villa Adela", "Numero": 50.0, "Direccion": "Calle Gabriela Mistral 4711", "Atencion": "Atención 7 a 19 hs", "Telefono": "TE: 4333304", "Longitud": -64.248264, "Latitud": -31.435822, "IdIcono": 1.0 }, "geometry": { "type": "Point", "coordinates": [ -64.248264, -31.435822 ] } },
{ "type": "Feature", "properties": { "Name": "CS N° 051 - Guiñazu", "Numero": 51.0, "Direccion": "Calle De la Caja esq. Del Erquencho", "Atencion": "Atención 24 hs", "Telefono": "TE: 4995883", "Longitud": -64.176877, "Latitud": -31.313835, "IdIcono": 1.0 }, "geometry": { "type": "Point", "coordinates": [ -64.176877, -31.313835 ] } },
{ "type": "Feature", "properties": { "Name": "CS N° 052 - Villa Urquiza", "Numero": 52.0, "Direccion": "Calle Humberto 1º esq. Triunvirato", "Atencion": "Atención 7 a 15 hs", "Telefono": "TE: 4337311 \/ 7338", "Longitud": -64.241363, "Latitud": -31.391963, "IdIcono": 1.0 }, "geometry": { "type": "Point", "coordinates": [ -64.241363, -31.391963 ] } },
{ "type": "Feature", "properties": { "Name": "CS N° 053 - Inaudi", "Numero": 53.0, "Direccion": "Calle Teniente Nivoli esq. Fiorito", "Atencion": "Atención Lunes y Miérc. 7 a 18 hs \/ Martes - Jueves y Viernes 7 a 14 hs", "Telefono": "TE: 4333314", "Longitud": -64.193448, "Latitud": -31.47643, "IdIcono": 1.0 }, "geometry": { "type": "Point", "coordinates": [ -64.193448, -31.47643 ] } },
{ "type": "Feature", "properties": { "Name": "CS Nº 054 - Los Boulevares", "Numero": 54.0, "Direccion": "Calle Bv de Los Hungaros esq Bv. De los Lombardos", "Atencion": "7 a 14 hs", "Telefono": "TE: 43351442", "Longitud": -64.217497, "Latitud": -31.344621, "IdIcono": 1.0 }, "geometry": { "type": "Point", "coordinates": [ -64.217497, -31.344621 ] } },
{ "type": "Feature", "properties": { "Name": "CS N° 055 - Las Palmas", "Numero": 55.0, "Direccion": "Calle Miguel de Sopegna 350", "Atencion": "Atención Lunes - Mierc. y Viernes 7 a 15 hs \/ Martes y Jueves 7 a 15 hs", "Telefono": "TE: 4337339", "Longitud": -64.240834, "Latitud": -31.406385, "IdIcono": 1.0 }, "geometry": { "type": "Point", "coordinates": [ -64.240834, -31.406385 ] } },
{ "type": "Feature", "properties": { "Name": "CS N° 056 - Empalme", "Numero": 56.0, "Direccion": "Calle Ariza 4800 (entre Samaniego y Pichanas)", "Atencion": "Atención 7 a 17 hs", "Telefono": "TE: 4338561 \/ 8766", "Longitud": -64.124231, "Latitud": -31.432059, "IdIcono": 1.0 }, "geometry": { "type": "Point", "coordinates": [ -64.124231, -31.432059 ] } },
{ "type": "Feature", "properties": { "Name": "CS N° 057 - Arguello I.P.V", "Numero": 57.0, "Direccion": "Calle Fermin Martin esq. Alberto Fage", "Atencion": "Atención 7 a 18 hs", "Telefono": "TE: 03543-449432", "Longitud": -64.2462816, "Latitud": -31.3337847, "IdIcono": 1.0 }, "geometry": { "type": "Point", "coordinates": [ -64.2462816, -31.3337847 ] } },
{ "type": "Feature", "properties": { "Name": "CS N° 058 - Maldonado", "Numero": 58.0, "Direccion": "Calle Martín Cartechini esq. Blas Parera", "Atencion": "Atención 24hs", "Telefono": "TE: 4338573", "Longitud": -64.131618, "Latitud": -31.414486, "IdIcono": 1.0 }, "geometry": { "type": "Point", "coordinates": [ -64.131618, -31.414486 ] } },
{ "type": "Feature", "properties": { "Name": "CS N° 059 - Congreso", "Numero": 59.0, "Direccion": "Calle Curazao esq. Ralico", "Atencion": "Atención 7 a 18 hs", "Telefono": "TE: 4333305", "Longitud": -64.232624, "Latitud": -31.467755, "IdIcono": 1.0 }, "geometry": { "type": "Point", "coordinates": [ -64.232624, -31.467755 ] } },
{ "type": "Feature", "properties": { "Name": "CS N° 060 - Marquez de Sobremonte Anexo", "Numero": 60.0, "Direccion": "Calle Del Molino esq. Del Precursor", "Atencion": "Atención 7 a 14 hs", "Telefono": "TE: 4335122", "Longitud": -64.190261, "Latitud": -31.372003, "IdIcono": 1.0 }, "geometry": { "type": "Point", "coordinates": [ -64.190261, -31.372003 ] } },
{ "type": "Feature", "properties": { "Name": "CS N° 061 - Cerrito Autodromo", "Numero": 61.0, "Direccion": "Calle Domingo Marimon esq Mario Sesarego", "Atencion": "Atención 7 a 18 hs", "Telefono": "TE: 03543-449421", "Longitud": -64.248648, "Latitud": -31.325207, "IdIcono": 1.0 }, "geometry": { "type": "Point", "coordinates": [ -64.248648, -31.325207 ] } },
{ "type": "Feature", "properties": { "Name": "CS N° 062 - Villa Cornú", "Numero": 62.0, "Direccion": "Calle Llanquen entre Quilluamila y Lonconche", "Atencion": "Atención 7 a 14 hs", "Telefono": "TE:", "Longitud": -64.2701, "Latitud": -31.313475, "IdIcono": 1.0 }, "geometry": { "type": "Point", "coordinates": [ -64.2701, -31.313475 ] } },
{ "type": "Feature", "properties": { "Name": "CS N° 063 - Parque República", "Numero": 63.0, "Direccion": "Calle Mariano Rosas esq. Ceferino Namuncura", "Atencion": "Atención 7 a 14 hs", "Telefono": "TE: 4337818", "Longitud": -64.259353, "Latitud": -31.415466, "IdIcono": 1.0 }, "geometry": { "type": "Point", "coordinates": [ -64.259353, -31.415466 ] } },
{ "type": "Feature", "properties": { "Name": "CS N° 064 - Oña \/ Bialet Massé", "Numero": 64.0, "Direccion": "Calle Los Hornillos esq. Cerro Colorado", "Atencion": "Atención 7 a 14 hs", "Telefono": "TE: 4334376", "Longitud": -64.165108, "Latitud": -31.452486, "IdIcono": 1.0 }, "geometry": { "type": "Point", "coordinates": [ -64.165108, -31.452486 ] } },
{ "type": "Feature", "properties": { "Name": "CS N° 065 - San Roque", "Numero": 65.0, "Direccion": "Calle Guemes (Esq. Kingsley)", "Atencion": "Horario: 7-19 hs", "Telefono": "TE: 4333210 \/ 3315", "Longitud": -64.247017, "Latitud": -31.421891, "IdIcono": 1.0 }, "geometry": { "type": "Point", "coordinates": [ -64.247017, -31.421891 ] } },
{ "type": "Feature", "properties": { "Name": "CS N° 066 - Mercantil Anexo", "Numero": 66.0, "Direccion": "Calle Onofre Marimon y Jose Maria Rosa", "Atencion": "Atención: 7 a 14 hs", "Telefono": "TE: 03543-449430 \/ 9022", "Longitud": -64.256233, "Latitud": -31.32051, "IdIcono": 1.0 }, "geometry": { "type": "Point", "coordinates": [ -64.256233, -31.32051 ] } },
{ "type": "Feature", "properties": { "Name": "CS N° 067 - 16 de Noviembre", "Numero": 67.0, "Direccion": "Calle Cauque s\/n (al lado del Obrador)", "Atencion": "Atención 7 a 14 hs", "Telefono": "TE: 03543-449431 \/ 9443", "Longitud": -64.261726, "Latitud": -31.313572, "IdIcono": 1.0 }, "geometry": { "type": "Point", "coordinates": [ -64.261726, -31.313572 ] } },
{ "type": "Feature", "properties": { "Name": "CS N° 068 - Carcano", "Numero": 68.0, "Direccion": "Calle De las Altas Cumbres 3830", "Atencion": "Atención: 7 a 14 hs", "Telefono": "TE: 4338500", "Longitud": -64.144551, "Latitud": -31.46598, "IdIcono": 1.0 }, "geometry": { "type": "Point", "coordinates": [ -64.144551, -31.46598 ] } },
{ "type": "Feature", "properties": { "Name": "CS N° 069 - General Arenales", "Numero": 69.0, "Direccion": "Calle La Pirincha esq. El Crespin", "Atencion": "Atención: 7:30-18:30 hs", "Telefono": "TE: 4997931", "Longitud": -64.060866, "Latitud": -31.369312, "IdIcono": 1.0 }, "geometry": { "type": "Point", "coordinates": [ -64.060866, -31.369312 ] } },
{ "type": "Feature", "properties": { "Name": "CS N° 070 - Estación Flores", "Numero": 70.0, "Direccion": "Calle Berlin 3540", "Atencion": "Atención 7 a 17 hs", "Telefono": "TE: 4333208", "Longitud": -64.245434, "Latitud": -31.449076, "IdIcono": 1.0 }, "geometry": { "type": "Point", "coordinates": [ -64.245434, -31.449076 ] } },
{ "type": "Feature", "properties": { "Name": "CS N° 071 - Cooperativa El Arco", "Numero": 71.0, "Direccion": "Calle Av. Sotomayor Esq. Brandan)", "Atencion": "Atención 7 a 19 hs", "Telefono": "TE: 4338631", "Longitud": -64.1330824, "Latitud": -31.4521807, "IdIcono": 1.0 }, "geometry": { "type": "Point", "coordinates": [ -64.1330824, -31.4521807 ] } },
{ "type": "Feature", "properties": { "Name": "CS N° 072 - La Floresta", "Numero": 72.0, "Direccion": "Calle Las Orquidias s\/n (al lado del Centro Vecinal)", "Atencion": "Atención 8 a 14 hs", "Telefono": "TE: 4997930", "Longitud": -64.059992, "Latitud": -31.378005, "IdIcono": 1.0 }, "geometry": { "type": "Point", "coordinates": [ -64.059992, -31.378005 ] } },
{ "type": "Feature", "properties": { "Name": "CS N° 073 - Parque Futura", "Numero": 73.0, "Direccion": "Calle Guanazacate (Esq. Aruba)", "Atencion": "Atención 7 a 14:30 hs", "Telefono": "TE: 4333314", "Longitud": -64.246765, "Latitud": -31.483352, "IdIcono": 1.0 }, "geometry": { "type": "Point", "coordinates": [ -64.246765, -31.483352 ] } },
{ "type": "Feature", "properties": { "Name": "CS N° 074 - Villa Esquiú", "Numero": 74.0, "Direccion": "A. Arturo Capdevila Km 10", "Atencion": "Atención 7 a 14 hs", "Telefono": "TE: 4999910", "Longitud": -64.105461, "Latitud": -31.355414, "IdIcono": 1.0 }, "geometry": { "type": "Point", "coordinates": [ -64.105461, -31.355414 ] } },
{ "type": "Feature", "properties": { "Name": "CS N° 075 - Cerveceros", "Numero": 75.0, "Direccion": "Calle Onofrio Palamara 2825 (entre Reyna y Saavedra)", "Atencion": "Atención 7 a 14 hs", "Telefono": "TE: 4334357 \/ 4379", "Longitud": -64.16007, "Latitud": -31.464296, "IdIcono": 1.0 }, "geometry": { "type": "Point", "coordinates": [ -64.16007, -31.464296 ] } },
{ "type": "Feature", "properties": { "Name": "CS N° 076 - Villa Unión", "Numero": 76.0, "Direccion": "Calle Tres Cruces (Esq. Cataneo)", "Atencion": "Atención 7 a 14 hs", "Telefono": "TE: 4333332 \/ 3209", "Longitud": -64.263116, "Latitud": -31.421353, "IdIcono": 1.0 }, "geometry": { "type": "Point", "coordinates": [ -64.263116, -31.421353 ] } },
{ "type": "Feature", "properties": { "Name": "CS N° 077 - Don Bosco", "Numero": 77.0, "Direccion": "Calle Juan B. Guerra 6894", "Atencion": "Atención 7 a 14 hs", "Telefono": "TE: 155395765", "Longitud": -64.2732491, "Latitud": -31.3866908, "IdIcono": 1.0 }, "geometry": { "type": "Point", "coordinates": [ -64.2732491, -31.3866908 ] } },
{ "type": "Feature", "properties": { "Name": "CS N° 078 - Parque Liceo II Secc.", "Numero": 78.0, "Direccion": "Calle Gutierrez Najera 1056 (Esq. Olegario Andrade)", "Atencion": "Atención 7 a 19 hs", "Telefono": "TE: 4332862", "Longitud": -64.162989, "Latitud": -31.357558, "IdIcono": 1.0 }, "geometry": { "type": "Point", "coordinates": [ -64.162989, -31.357558 ] } },
{ "type": "Feature", "properties": { "Name": "CS N° 079 - Albert Sabin", "Numero": 79.0, "Direccion": "Camino San Antonio Km 7 1\/2", "Atencion": "Atención 7 a 18 hs", "Telefono": "TE: 153196086", "Longitud": -64.189376, "Latitud": -31.489784, "IdIcono": 1.0 }, "geometry": { "type": "Point", "coordinates": [ -64.189376, -31.489784 ] } },
{ "type": "Feature", "properties": { "Name": "CS N° 080 - Renacimiento", "Numero": 80.0, "Direccion": "Calle Manuel de Oliden 448", "Atencion": "Atención 7:30 a 14.30 hs", "Telefono": "TE: 4338562", "Longitud": -64.122643, "Latitud": -31.41547, "IdIcono": 1.0 }, "geometry": { "type": "Point", "coordinates": [ -64.122643, -31.41547 ] } },
{ "type": "Feature", "properties": { "Name": "CS N° 081 - San Lorenzo ", "Numero": 81.0, "Direccion": "Manuel Padilla 4677", "Atencion": "Atención 7 a 14 hs", "Telefono": "TE: 4338632", "Longitud": -64.1084924, "Latitud": -31.455072, "IdIcono": 1.0 }, "geometry": { "type": "Point", "coordinates": [ -64.1084924, -31.455072 ] } },
{ "type": "Feature", "properties": { "Name": "CS N° 082 - Villa Allende Parque", "Numero": 82.0, "Direccion": "Calle 15 S\/N (entre 18 y 19)", "Atencion": "Atención 7 a 17 hs", "Telefono": "TE: 03543-439691", "Longitud": -64.283195, "Latitud": -31.315606, "IdIcono": 1.0 }, "geometry": { "type": "Point", "coordinates": [ -64.283195, -31.315606 ] } },
{ "type": "Feature", "properties": { "Name": "CS N° 083 - Ameghino Norte ", "Numero": 83.0, "Direccion": "Maria Curie y Gonzalez Albarracín", "Atencion": "Atención 7 a 14 hs", "Telefono": "TE: 4333335", "Longitud": -64.2392105, "Latitud": -31.4294856, "IdIcono": 1.0 }, "geometry": { "type": "Point", "coordinates": [ -64.2392105, -31.4294856 ] } },
{ "type": "Feature", "properties": { "Name": "CS N° 084 - Bajo Grande", "Numero": 84.0, "Direccion": "Camino a Chacra de la Merced Km 6 1\/2", "Atencion": "Atención 8 a 15 hs", "Telefono": "TE: 4339137", "Longitud": -64.11575, "Latitud": -31.402825, "IdIcono": 1.0 }, "geometry": { "type": "Point", "coordinates": [ -64.11575, -31.402825 ] } },
{ "type": "Feature", "properties": { "Name": "CS N° 085 - Patricios Este", "Numero": 85.0, "Direccion": "Heroes de Vilcapujio 3725", "Atencion": "Atención 7 a 14 hs", "Telefono": "TE: 4335133", "Longitud": -64.136531, "Latitud": -31.367004, "IdIcono": 1.0 }, "geometry": { "type": "Point", "coordinates": [ -64.136531, -31.367004 ] } },
{ "type": "Feature", "properties": { "Name": "CS N° 086 - Villa El Libertador", "Numero": 86.0, "Direccion": "Calle Barraquilla S\/N (entre Mercedes y Pje.Publico ex.12)", "Atencion": "Atención 7 a 16 hs", "Telefono": "TE: 4333512\/ 3216", "Longitud": -64.216515, "Latitud": -31.480657, "IdIcono": 1.0 }, "geometry": { "type": "Point", "coordinates": [ -64.216515, -31.480657 ] } },
{ "type": "Feature", "properties": { "Name": "CS N° 087 - Sachi", "Numero": 87.0, "Direccion": "Calle El Dorado 6050", "Atencion": "Atención 7 a 14 hs", "Telefono": "TE: 4333217", "Longitud": -64.263078, "Latitud": -31.454728, "IdIcono": 1.0 }, "geometry": { "type": "Point", "coordinates": [ -64.263078, -31.454728 ] } },
{ "type": "Feature", "properties": { "Name": "CS N° 088 - Chacra de la Merced", "Numero": 88.0, "Direccion": "Ruta 19 altura Ingreso Malvinas Argentinas", "Atencion": "Atención 7 a 19 hs", "Telefono": "TE: 156103070", "Longitud": -64.056988, "Latitud": -31.383574, "IdIcono": 1.0 }, "geometry": { "type": "Point", "coordinates": [ -64.056988, -31.383574 ] } },
{ "type": "Feature", "properties": { "Name": "CS N° 089 - Villa Rivadavia", "Numero": 89.0, "Direccion": "Camino a San Antonio Km 8 1\/2", "Atencion": "Atención 7 a 15 hs", "Telefono": "TE: 4333228", "Longitud": -64.190079, "Latitud": -31.506264, "IdIcono": 1.0 }, "geometry": { "type": "Point", "coordinates": [ -64.190079, -31.506264 ] } },
{ "type": "Feature", "properties": { "Name": "CS N° 090 - Ituzaingo Anexo", "Numero": 90.0, "Direccion": "Calle James Frank 5571", "Atencion": "Atención 7 a 19 hs", "Telefono": "TE: 4348527", "Longitud": -64.082319, "Latitud": -31.463619, "IdIcono": 1.0 }, "geometry": { "type": "Point", "coordinates": [ -64.082319, -31.463619 ] } },
{ "type": "Feature", "properties": { "Name": "CS N° 091 - Villa Bustos", "Numero": 91.0, "Direccion": "Pasaje Ancasti esq. Benjamin Viel", "Atencion": "Atención 7 a 19 hs", "Telefono": "TE: 4338528", "Longitud": -64.113185, "Latitud": -31.439264, "IdIcono": 1.0 }, "geometry": { "type": "Point", "coordinates": [ -64.113185, -31.439264 ] } },
{ "type": "Feature", "properties": { "Name": "CS N° 092 - Los Cortaderos", "Numero": 92.0, "Direccion": "Boulevard de los Polacos y Canal Norte", "Atencion": "Atención 7 a 14 hs", "Telefono": "TE:", "Longitud": -64.231299, "Latitud": -31.332388, "IdIcono": 1.0 }, "geometry": { "type": "Point", "coordinates": [ -64.231299, -31.332388 ] } },
{ "type": "Feature", "properties": { "Name": "CS N° 093 - Villa La Tela", "Numero": 93.0, "Direccion": "Aviador Almonacid esq. Avdor Zaar", "Atencion": "Atención 7 a 14 hs", "Telefono": "TE: 4343188", "Longitud": -64.252617, "Latitud": -31.427766, "IdIcono": 1.0 }, "geometry": { "type": "Point", "coordinates": [ -64.252617, -31.427766 ] } },
{ "type": "Feature", "properties": { "Name": "CS N° 094 - Parque Liceo III Secc.", "Numero": 94.0, "Direccion": "Calle Juan Luis Orrego 4735 (Esq. Constancio Vigil)", "Atencion": "Atención 8 a 15 hs", "Telefono": "TE: 4331924", "Longitud": -64.151718, "Latitud": -31.356555, "IdIcono": 1.0 }, "geometry": { "type": "Point", "coordinates": [ -64.151718, -31.356555 ] } },
{ "type": "Feature", "properties": { "Name": "CS N° 095 - Camino 60 Cuadras", "Numero": 95.0, "Direccion": "Calle Publica Nº 1 Mza. 26 Lote 17", "Atencion": "Atención 8 a 15 hs", "Telefono": "TE: 156107044", "Longitud": -64.146745, "Latitud": -31.450687, "IdIcono": 1.0 }, "geometry": { "type": "Point", "coordinates": [ -64.146745, -31.450687 ] } },
{ "type": "Feature", "properties": { "Name": "CS N° 096 - Jose I.Diaz I Seccion", "Numero": 96.0, "Direccion": "Camimo a 60 cuadas Km 3 1\/2", "Atencion": "Atención 7 a 14 hs", "Telefono": "TE: 4348520", "Longitud": -64.148011, "Latitud": -31.474463, "IdIcono": 1.0 }, "geometry": { "type": "Point", "coordinates": [ -64.148011, -31.474463 ] } },
{ "type": "Feature", "properties": { "Name": "CS N° 097 - Cabildo", "Numero": 97.0, "Direccion": "Río Colorado & Macachin", "Atencion": "Atención 7 a 14:30 hs", "Telefono": "TE: 4343230", "Longitud": -64.2345784, "Latitud": -31.4890578, "IdIcono": 1.0 }, "geometry": { "type": "Point", "coordinates": [ -64.2345784, -31.4890578 ] } },
{ "type": "Feature", "properties": { "Name": "CS N° 098 - Mercado de Abasto", "Numero": 98.0, "Direccion": "Av. de la Semilleria s\/n", "Atencion": "Atención 7 a 14 hs", "Telefono": "TE: 4969060", "Longitud": -64.112198, "Latitud": -31.395132, "IdIcono": 1.0 }, "geometry": { "type": "Point", "coordinates": [ -64.112198, -31.395132 ] } },
{ "type": "Feature", "properties": { "Name": "CS N° 099 - Los Robles", "Numero": 99.0, "Direccion": "Docentes Argentinos 5890", "Atencion": "Atencion", "Telefono": "TE:", "Longitud": -64.2624685, "Latitud": -31.4025916, "IdIcono": 1.0 }, "geometry": { "type": "Point", "coordinates": [ -64.2624685, -31.4025916 ] } },
{ "type": "Feature", "properties": { "Name": "CS N° 100 - Heroes de Malvinas", "Numero": 100.0, "Direccion": "Direccion", "Atencion": "Atencion", "Telefono": "TE:", "Longitud": -64.2511264, "Latitud": -31.476027, "IdIcono": 1.0 }, "geometry": { "type": "Point", "coordinates": [ -64.2511264, -31.476027 ] } },
{ "type": "Feature", "properties": { "Name": "CS N° 101 - 12 de Julio", "Numero": 101.0, "Direccion": "Manuel Lizondo Borda 6000", "Atencion": "Atencion", "Telefono": "TE:", "Longitud": -64.2540959, "Latitud": -31.3142923, "IdIcono": 1.0 }, "geometry": { "type": "Point", "coordinates": [ -64.2540959, -31.3142923 ] } },
{ "type": "Feature", "properties": { "Name": "DEM CENTRO", "Numero": 102.0, "Direccion": "Domingo F. Sarmiento 450", "Atencion": "atención ", "Telefono": "Telefono", "Longitud": -64.17581661, "Latitud": -31.41192298, "IdIcono": 2.0 }, "geometry": { "type": "Point", "coordinates": [ -64.17581661, -31.41192298 ] } },
{ "type": "Feature", "properties": { "Name": "DEM NORTE", "Numero": 103.0, "Direccion": "Anacreonte esq. Jujuy ", "Atencion": "atención ", "Telefono": "Telefono", "Longitud": -64.18134577, "Latitud": -31.37933113, "IdIcono": 2.0 }, "geometry": { "type": "Point", "coordinates": [ -64.18134577, -31.37933113 ] } },
{ "type": "Feature", "properties": { "Name": "DEM OESTE", "Numero": 104.0, "Direccion": "Deán Gregorio Funes 2000", "Atencion": "atención ", "Telefono": "Telefono", "Longitud": -64.20967554000001, "Latitud": -31.40760885, "IdIcono": 2.0 }, "geometry": { "type": "Point", "coordinates": [ -64.20967554, -31.40760885 ] } },
{ "type": "Feature", "properties": { "Name": "HOSP. MUNICIPAL VILLA EL LIBERTADOR PPE DE ASTURIAS", "Numero": 105.0, "Direccion": "Defensa 1200 ", "Atencion": "atención ", "Telefono": "Telefono", "Longitud": -64.21937581, "Latitud": -31.46900843, "IdIcono": 3.0 }, "geometry": { "type": "Point", "coordinates": [ -64.21937581, -31.46900843 ] } },
{ "type": "Feature", "properties": { "Name": "HOSP. URGENCIAS", "Numero": 106.0, "Direccion": "Catamarca 441", "Atencion": "atención ", "Telefono": "Telefono", "Longitud": -64.17592637, "Latitud": -31.41266607, "IdIcono": 3.0 }, "geometry": { "type": "Point", "coordinates": [ -64.17592637, -31.41266607 ] } },
{ "type": "Feature", "properties": { "Name": "HOSP. INFANTIL", "Numero": 107.0, "Direccion": "Juan Antonio Lavalleja 3050", "Atencion": "atención ", "Telefono": "Telefono", "Longitud": -64.1817355, "Latitud": -31.37994147, "IdIcono": 3.0 }, "geometry": { "type": "Point", "coordinates": [ -64.1817355, -31.37994147 ] } },
{ "type": "Feature", "properties": { "Name": "MEDICINA PREVENTIVA ", "Numero": 108.0, "Direccion": "Santa Rosa 360", "Atencion": "atención ", "Telefono": "Telefono", "Longitud": -64.18734015, "Latitud": -31.41104922, "IdIcono": 4.0 }, "geometry": { "type": "Point", "coordinates": [ -64.18734015, -31.41104922 ] } },
{ "type": "Feature", "properties": { "Name": "CALIDAD ALIMENTARIA", "Numero": 109.0, "Direccion": "San Martín 850, 1° Piso ", "Atencion": "atención ", "Telefono": "Telefono", "Longitud": -64.17990714, "Latitud": -31.40658168, "IdIcono": 4.0 }, "geometry": { "type": "Point", "coordinates": [ -64.17990714, -31.40658168 ] } },
{ "type": "Feature", "properties": { "Name": "SERVICIO ODONTOLOGICO", "Numero": 110.0, "Direccion": "San Martín 850", "Atencion": "Atención 7:30 a 17:30 hs", "Telefono": "TE: 3514342250", "Longitud": -64.17990714, "Latitud": -31.40658168, "IdIcono": 4.0 }, "geometry": { "type": "Point", "coordinates": [ -64.17990714, -31.40658168 ] } },
{ "type": "Feature", "properties": { "Name": "PADRE LA MONACA", "Numero": 111.0, "Direccion": "Estanislao Learte 653", "Atencion": null, "Telefono": null, "Longitud": -64.13689926000001, "Latitud": -31.41734186, "IdIcono": 4.0 }, "geometry": { "type": "Point", "coordinates": [ -64.13689926, -31.41734186 ] } },
{ "type": "Feature", "properties": { "Name": "EPIDEMIOLOGÍA", "Numero": 112.0, "Direccion": "Sarmiento 450", "Atencion": null, "Telefono": null, "Longitud": -64.1762461, "Latitud": -31.41186618, "IdIcono": 4.0 }, "geometry": { "type": "Point", "coordinates": [ -64.1762461, -31.41186618 ] } },
{ "type": "Feature", "properties": { "Name": "CENTRO DE ASISTENCIA LAZOS", "Numero": 113.0, "Direccion": "Castro Barros 559", "Atencion": null, "Telefono": null, "Longitud": -64.19751172, "Latitud": -31.40003464, "IdIcono": 5.0 }, "geometry": { "type": "Point", "coordinates": [ -64.19751172, -31.40003464 ] } },
{ "type": "Feature", "properties": { "Name": "CENTRO COMUNITARIO VILLA BUSTOS", "Numero": 114.0, "Direccion": "Ancasti 5750", "Atencion": "Atención de 14:30 a 19:30 los Lunes y Viernes, y de 9 a 14 hs los Martes y Jueves", "Telefono": "TE: 3516100536", "Longitud": -64.11154409, "Latitud": -31.43940956, "IdIcono": 5.0 }, "geometry": { "type": "Point", "coordinates": [ -64.11154409, -31.43940956 ] } },
{ "type": "Feature", "properties": { "Name": "CENTRO COMUNITARIO ALDEAS", "Numero": 115.0, "Direccion": "Gabriel Ortega 8035", "Atencion": null, "Telefono": null, "Longitud": -64.2572613, "Latitud": -31.3300849, "IdIcono": 5.0 }, "geometry": { "type": "Point", "coordinates": [ -64.2572613, -31.3300849 ] } },
{ "type": "Feature", "properties": { "Name": "CENTRO INTEGRAL DE SALUD DEPORTIVA MUNICIPAL", "Numero": 116.0, "Direccion": "Roma 155", "Atencion": null, "Telefono": null, "Longitud": -64.16365355000001, "Latitud": -31.41313372, "IdIcono": 4.0 }, "geometry": { "type": "Point", "coordinates": [ -64.16365355, -31.41313372 ] } },
{ "type": "Feature", "properties": { "Name": "LABORATORIO FARMACÉUTICO MUNICIPAL ", "Numero": 117.0, "Direccion": "Obispo Castellano 2175", "Atencion": null, "Telefono": null, "Longitud": -64.14090423, "Latitud": -31.43362193, "IdIcono": 4.0 }, "geometry": { "type": "Point", "coordinates": [ -64.14090423, -31.43362193 ] } },
{ "type": "Feature", "properties": { "Name": "SECRETARÍA DE PREVENCIÓN Y ATENCIÓN COMUNITARIA", "Numero": 118.0, "Direccion": "27 de Abril 757", "Atencion": null, "Telefono": null, "Longitud": -64.19466873, "Latitud": -31.41418174, "IdIcono": 6.0 }, "geometry": { "type": "Point", "coordinates": [ -64.19466873, -31.41418174 ] } },
{ "type": "Feature", "properties": { "Name": "SECRETARÍA DE SALUD", "Numero": 119.0, "Direccion": "Av. Marcelo T. de Alvear 120", "Atencion": null, "Telefono": null, "Longitud": -64.19104614, "Latitud": -31.41588552, "IdIcono": 6.0 }, "geometry": { "type": "Point", "coordinates": [ -64.19104614, -31.41588552 ] } },
{ "type": "Feature", "properties": { "Name": "HOSPITAL PRONTA ATENCIÓN CURA BROCHERO ", "Numero": 120.0, "Direccion": "Av. Ricardo Rojas 6950", "Atencion": null, "Telefono": null, "Longitud": -64.25606416, "Latitud": -31.34019214, "IdIcono": 3.0 }, "geometry": { "type": "Point", "coordinates": [ -64.25606416, -31.34019214 ] } },
{ "type": "Feature", "properties": { "Name": "HOSPITAL PRONTA ATENCIÓN VILLA ADELA", "Numero": 121.0, "Direccion": "Av. Fuerza Aerea Argentina 5085", "Atencion": null, "Telefono": null, "Longitud": -64.252843, "Latitud": -31.433377, "IdIcono": 3.0 }, "geometry": { "type": "Point", "coordinates": [ -64.252843, -31.433377 ] } },
{ "type": "Feature", "properties": { "Name": "HOSPITAL PRONTA ATENCIÓN COMIPAS", "Numero": 122.0, "Direccion": "Av. del Trabajo 830", "Atencion": null, "Telefono": null, "Longitud": -64.16458146, "Latitud": -31.39362591, "IdIcono": 3.0 }, "geometry": { "type": "Point", "coordinates": [ -64.16458146, -31.39362591 ] } },
{ "type": "Feature", "properties": { "Name": "HOSPITAL PRONTA ATENCIÓN CAMPO LA RIBERA", "Numero": 123.0, "Direccion": "Int. Ramón B. Mestre 5580", "Atencion": null, "Telefono": null, "Longitud": -64.14940402000001, "Latitud": -31.41802081, "IdIcono": 3.0 }, "geometry": { "type": "Point", "coordinates": [ -64.14940402, -31.41802081 ] } },
{ "type": "Feature", "properties": { "Name": "ODONTOLOGICO 24 HS", "Numero": 124.0, "Direccion": "Av. Colón 4782", "Atencion": null, "Telefono": null, "Longitud": -64.24168067, "Latitud": -31.39574567, "IdIcono": 4.0 }, "geometry": { "type": "Point", "coordinates": [ -64.24168067, -31.39574567 ] } }
]
}
